City_ID,City,Lat,Lng,Max Temp,Humidity,Cloudiness,Wind Speed,Country,Date
0,waitangi,-43.9535,-176.5597,11.01,73,100,0.89,NZ,1722820516
1,dudinka,69.4058,86.1778,10.22,56,0,9.22,RU,1722820310
2,udachny,66.4167,112.4,19.88,44,100,4.81,RU,1722820455
3,albany,42.6001,-73.9662,24.24,77,0,0.45,US,1722820066
4,wenling,28.3669,121.36,29.63,76,53,2.17,CN,1722820394
5,edinburgh of the seven seas,-37.0676,-12.3116,13.68,77,51,13.26,SH,1722820521
6,lakatoro,-16.0999,167.4164,24.4,55,3,8.49,VU,1722820511
7,newman,37.3138,-121.0208,36.99,15,2,4.18,US,1722820202
8,fale old settlement,-9.3852,-171.2468,27.68,81,100,6.4,TK,1722820524
9,nar'yan-mar,67.6713,53.087,6.16,74,94,6.35,RU,1722820494
10,puerto natales,-51.7236,-72.4875,0.8,98,100,0.65,CL,1722820527
11,es castell,39.8795,4.2854,24.38,83,0,2.06,ES,1722820528
12,osakarovka,50.565,72.5692,16.65,67,73,1.7,KZ,1722820529
13,kalmunai,7.4167,81.8167,25.53,83,15,1.85,LK,1722820188
14,belyy yar,53.6039,91.3903,19.94,77,0,3.0,RU,1722820531
15,flying fish cove,-10.4217,105.6791,24.82,88,75,5.66,CX,1722820195
16,saipan,15.1355,145.701,31.39,66,40,6.69,MP,1722820533
17,punta arenas,-53.15,-70.9167,-0.94,100,75,2.57,CL,1722820070
18,isafjordur,66.0755,-23.124,8.1,85,100,8.09,IS,1722820535
19,iqaluit,63.7506,-68.5145,5.85,93,75,1.54,CA,1722820120
20,invercargill,-46.4,168.35,12.23,66,17,3.13,NZ,1722820334
21,shahrud,36.4182,54.9763,24.08,39,2,3.85,IR,1722820539
22,west island,-12.1568,96.8225,24.99,88,100,2.57,CC,1722820540
23,port-aux-francais,-49.35,70.2167,1.82,67,10,7.32,TF,1722820309
24,bethel,41.3712,-73.414,23.14,89,0,0.45,US,1722820512
25,okhotsk,59.3833,143.3,16.54,64,98,2.55,RU,1722820543
26,hawaiian paradise park,19.5933,-154.9731,25.73,88,100,7.2,US,1722820544
27,bardai,11.65,7.2333,21.04,92,88,3.77,NG,1722820054
28,stanley,54.868,-1.6985,15.95,92,40,3.09,GB,1722820547
29,olonkinbyen,70.9221,-8.7187,5.99,98,100,3.16,SJ,1722819965
30,dunedin,-45.8742,170.5036,10.94,58,9,1.63,NZ,1722819987
31,zabaykal'sk,49.6333,117.3167,21.75,57,0,5.73,RU,1722820551
32,whitehorse,60.7161,-135.0538,23.94,28,20,2.57,CA,1722820552
33,ellsworth,44.5434,-68.4195,22.05,93,40,0.0,US,1722820553
34,calca,-13.3333,-71.95,11.64,78,23,2.8,PE,1722820554
35,andergrove,-21.0833,149.1833,21.47,75,100,4.97,AU,1722820555
36,grytviken,-54.2811,-36.5092,-1.39,84,100,4.67,GS,1722820557
37,nova sintra,14.8667,-24.7167,26.68,78,100,2.42,CV,1722820558
38,atafu village,-8.5421,-172.5159,27.86,80,100,5.29,TK,1722820559
39,sorong,-0.8833,131.25,24.63,93,100,4.71,ID,1722819843
40,kavaratti,10.5669,72.642,27.74,81,100,4.62,IN,1722820561
41,wailua homesteads,22.0669,-159.378,27.44,71,100,6.69,US,1722820562
42,qoryooley,1.7878,44.53,22.73,73,92,5.28,SO,1722820563
43,fort william,56.8165,-5.1121,15.73,97,100,1.67,GB,1722820564
44,adamstown,-25.066,-130.1015,21.15,79,100,7.69,PN,1722820566
45,faya-largeau,17.9257,19.1043,27.56,75,100,11.18,TD,1722820392
46,tippi,7.2,35.45,17.94,98,87,1.14,ET,1722820568
47,ust'-ilimsk,58.0006,102.6619,18.86,54,0,1.18,RU,1722820569
48,walvis bay,-22.9575,14.5053,9.49,79,2,6.04,NA,1722820571
49,luderitz,-26.6481,15.1594,12.39,76,0,5.67,NA,1722820424
50,raduzhny,62.0961,77.475,17.32,92,100,1.91,RU,1722820573
51,berezovyy,51.6667,135.7,16.6,76,100,0.45,RU,1722820574
52,georgetown,5.4112,100.3354,28.96,78,20,1.03,MY,1722819731
53,palu,-0.8917,119.8707,26.46,90,97,0.91,ID,1722820577
54,ribeira grande,38.5167,-28.7,24.87,95,16,2.24,PT,1722820405
55,papatowai,-46.5619,169.4708,11.15,62,12,2.17,NZ,1722820579
56,cabo san lucas,22.8909,-109.9124,33.12,42,20,5.14,MX,1722820580
57,thunder bay,48.4001,-89.3168,18.99,55,39,1.03,CA,1722820581
58,pont-rouge,46.7566,-71.6978,21.83,97,100,0.78,CA,1722820582
59,saynshand,44.8824,110.1163,25.39,32,0,3.8,MN,1722820583
60,kilosa,-6.8333,36.9833,16.48,81,0,0.57,TZ,1722820585
61,tayu,-6.5397,111.0518,26.38,67,8,3.93,ID,1722820586
62,st. john's,47.5649,-52.7093,21.27,97,100,6.69,CA,1722820587
63,happy valley-goose bay,53.3168,-60.3315,16.7,67,11,1.12,CA,1722820399
64,port mathurin,-19.6833,63.4167,22.11,73,5,6.41,MU,1722820589
65,trinidad,-14.8333,-64.9,26.2,54,30,0.61,BO,1722820590
66,santa ana de yacuma,-13.75,-65.4333,28.71,42,8,1.9,BO,1722820591
67,chibougamau,49.9168,-74.3659,13.79,62,20,2.06,CA,1722820592
68,quibala,-10.7337,14.98,17.06,78,96,0.81,AO,1722820593
69,arkhangel'sk,64.5401,40.5433,11.06,100,75,3.0,RU,1722820078
70,siuri,23.9167,87.5333,28.12,81,100,2.16,IN,1722820596
71,badger,64.8,-147.5333,23.95,51,0,3.09,US,1722820597
72,yellowknife,62.456,-114.3525,21.29,49,75,5.66,CA,1722820598
73,itaueira,-7.6033,-43.0256,23.23,47,0,2.16,BR,1722820599
74,tshikapa,-6.4167,20.8,22.07,31,100,0.1,CD,1722820600
75,lompoc,34.6391,-120.4579,21.03,81,0,5.66,US,1722820324
76,merizo village,13.2658,144.6691,30.85,85,100,4.93,GU,1722820602
77,trinity beach,-16.7888,145.6968,23.94,80,40,5.96,AU,1722820604
78,fort bragg,35.139,-79.006,25.08,91,75,1.54,US,1722820605
79,blackmans bay,-43.0167,147.3167,13.07,61,8,0.89,AU,1722820430
80,new norfolk,-42.7826,147.0587,13.73,52,7,3.7,AU,1722820607
81,doume,4.2333,13.45,19.85,99,100,1.16,CM,1722820608
82,fort mcmurray,56.7268,-111.381,23.77,33,0,1.54,CA,1722820535
83,lebu,-37.6167,-73.65,10.25,92,100,13.27,CL,1722820104
84,arno,60.1167,18.6333,17.1,91,35,2.14,SE,1722820611
85,kourou,5.1552,-52.6478,27.03,84,80,3.61,GF,1722820612
86,bogotol,56.2078,89.5342,17.71,90,100,3.03,RU,1722820614
87,anadyr,64.75,177.4833,6.28,100,100,9.0,RU,1722820615
88,margaret river,-33.95,115.0667,15.93,78,98,6.85,AU,1722820616
89,rio gallegos,-51.6226,-69.2181,1.03,69,75,2.06,AR,1722820617
90,idri,27.5,13.2667,28.52,17,0,1.69,LY,1722820618
91,kingston,17.997,-76.7936,30.53,74,20,6.69,JM,1722820155
92,hammerfest,70.6634,23.6821,18.25,63,0,1.54,NO,1722820621
93,puerto ayora,-0.7393,-90.3518,20.31,94,49,0.89,EC,1722820622
94,gumushacikoy,40.8731,35.2147,14.18,52,3,0.94,TR,1722820624
95,bilibino,68.0546,166.4372,9.49,58,100,3.74,RU,1722820625
96,san antonio de pale,-1.4014,5.6325,22.19,70,83,2.87,GQ,1722820626
97,thompson,55.7435,-97.8558,19.52,36,8,3.98,CA,1722820121
98,gulu,2.7746,32.299,17.82,97,100,1.02,UG,1722820628
99,ugoofaaru,5.6667,73.0,27.68,78,100,4.12,MV,1722820629
100,hithadhoo,-0.6,73.0833,28.64,74,100,3.89,MV,1722820630
101,haiku-pauwela,20.9219,-156.3051,29.03,62,20,12.86,US,1722820631
102,knyaze-volkonskoye,48.4642,135.4567,23.19,73,100,3.76,RU,1722820633
103,acarau,-2.8856,-40.12,25.0,83,4,7.09,BR,1722820469
104,otofuke,42.9917,143.2003,20.53,88,75,1.03,JP,1722820635
105,nemuro,43.3236,145.575,15.43,100,100,3.67,JP,1722820411
106,chonchi,-42.6128,-73.8092,7.84,98,100,2.41,CL,1722820637
107,ushuaia,-54.8,-68.3,-1.19,69,75,3.6,AR,1722820628
108,vilyuchinsk,52.9306,158.4028,21.15,73,100,2.35,RU,1722820639
109,kapuskasing,49.4169,-82.4331,17.05,63,20,1.54,CA,1722820640
110,bredasdorp,-34.5322,20.0403,6.83,69,18,4.66,ZA,1722820342
111,queenstown,-31.8976,26.8753,6.36,81,68,2.52,ZA,1722820607
112,tiksi,71.6872,128.8694,12.65,63,100,5.26,RU,1722820644
113,hermanus,-34.4187,19.2345,9.89,67,70,8.16,ZA,1722820645
114,yeraliyev,43.2,51.65,27.63,39,0,3.85,KZ,1722820646
115,northam,51.0333,-4.2167,17.03,92,46,6.21,GB,1722820647
116,utrik,11.2278,169.8474,28.54,80,39,6.51,MH,1722820521
117,petropavlovsk-kamchatsky,53.0452,158.6483,19.33,60,20,3.0,RU,1722820415
118,martapura,-3.4167,114.85,27.05,74,0,1.54,ID,1722820651
119,uturoa,-16.7333,-151.4333,24.69,71,5,7.22,PF,1722820653
120,turkmenbasy,40.0222,52.9552,23.43,64,0,2.06,TM,1722820654
121,oroqen zizhiqi,50.5667,123.7167,24.27,67,48,2.36,CN,1722820507
122,bukama,-9.2,25.85,20.28,28,1,1.42,CD,1722820656
123,minusinsk,53.7103,91.6875,22.01,77,6,2.33,RU,1722820657
124,smara,26.7384,-11.6719,25.05,47,3,4.82,EH,1722820658
125,piacabucu,-10.4056,-36.4344,23.64,71,0,4.12,BR,1722820659
126,bweyogerere,0.3558,32.6672,19.86,69,18,0.61,UG,1722820662
127,nantucket,41.2835,-70.0995,25.56,94,0,5.14,US,1722820432
128,onega,63.9061,38.1404,11.75,88,100,2.24,RU,1722820664
129,juneau,58.3019,-134.4197,27.0,100,20,3.09,US,1722820594
130,castillos,-34.1667,-53.8333,10.17,83,99,2.03,UY,1722820666
131,nogliki,51.8333,143.1667,15.45,68,100,6.93,RU,1722820667
132,kodiak,57.79,-152.4072,11.73,100,100,5.66,US,1722820204
133,songyuan,45.1171,124.8568,25.81,89,100,5.66,CN,1722820641
134,aasiaat,68.7098,-52.8699,2.07,91,1,2.45,GL,1722820172
135,talnakh,69.4865,88.3972,12.33,54,0,5.41,RU,1722820672
136,diekirch,49.8678,6.1558,16.45,93,77,0.84,LU,1722820673
137,ginir,7.1333,40.7,16.69,75,91,2.34,ET,1722820456
138,kerikeri,-35.2268,173.9474,16.62,60,40,2.68,NZ,1722820675
139,avarua,-21.2078,-159.775,25.03,69,20,3.6,CK,1722820294
140,sechura,-5.5569,-80.8222,18.42,77,8,6.87,PE,1722820677
141,labrador city,52.9463,-66.9114,14.54,70,100,4.92,CA,1722820512
142,kimbe,-5.5502,150.1429,30.2,66,99,1.48,PG,1722820263
143,khorixas,-20.3667,14.9667,13.87,39,0,1.42,NA,1722820534
144,posto da mata,-17.8848,-39.8536,19.35,98,12,1.25,BR,1722820682
145,impfondo,1.6381,18.0667,22.2,95,89,1.01,CG,1722820683
146,mormugao,15.4,73.8,26.59,89,100,3.6,IN,1722820684
147,mwinilunga,-11.7358,24.4293,14.83,30,0,1.81,ZM,1722820685
148,lahaina,20.8783,-156.6825,29.45,68,24,4.75,US,1722820686
149,hermansverk,61.1846,6.8502,15.25,94,100,0.0,NO,1722820687
150,dinskaya,45.2178,39.2283,22.72,83,0,1.86,RU,1722820688
151,colonia,50.9333,6.95,17.68,84,0,1.54,DE,1722820570
152,salalah,17.0151,54.0924,26.05,89,100,1.03,OM,1722820691
153,kirensk,57.7853,108.1119,17.4,63,96,1.32,RU,1722820692
154,sitka,57.0531,-135.33,25.94,38,0,3.09,US,1722820070
155,male,4.1748,73.5089,27.97,78,100,6.69,MV,1722820694
156,pahlgam,34.0333,75.3333,14.54,93,44,0.49,IN,1722820695
157,tumsar,21.3833,79.7333,23.56,96,91,2.24,IN,1722820696
158,la ronge,55.1001,-105.2842,18.15,39,67,1.85,CA,1722820154
159,vorgashor,67.5833,63.95,8.45,65,57,5.03,RU,1722820516
160,pachino,36.7186,15.0907,26.5,83,0,1.86,IT,1722820700
161,ulladulla,-35.35,150.4667,15.88,49,100,2.24,AU,1722820452
162,pratola peligna,42.0983,13.8739,23.68,82,99,0.93,IT,1722820702
163,balkanabat,39.5108,54.3671,29.04,42,0,1.46,TM,1722820703
164,laveno,45.9128,8.6186,24.44,82,100,2.34,IT,1722820704
165,aykhal,66.0,111.5,20.58,40,36,6.61,RU,1722820705
166,sibolga,1.7427,98.7792,26.58,72,100,0.32,ID,1722820707
167,ulanhot,46.0833,122.0833,26.36,59,100,5.46,CN,1722820709
168,enewetak,11.3474,162.3373,28.89,76,100,4.11,MH,1722820710
169,ilulissat,69.2167,-51.1,7.01,76,40,0.51,GL,1722820189
170,kirkland lake,48.1446,-80.0377,14.16,77,46,0.51,CA,1722820712
171,mugia,43.1041,-9.2179,18.28,93,2,2.91,ES,1722820713
172,sao vicente,-23.9631,-46.3919,28.1,57,99,0.88,BR,1722820280
173,karungdong,5.8844,121.263,28.72,71,90,1.7,PH,1722820715
174,santiago de cao,-7.9589,-79.2392,17.07,88,40,3.6,PE,1722820239
175,lazaro cardenas,17.9583,-102.2,27.97,80,100,3.48,MX,1722820719
176,dawesville,30.9224,-84.0091,24.82,95,40,4.12,US,1722820721
177,magadan,59.5667,150.8,16.05,71,2,1.82,RU,1722820722
178,banda aceh,5.5577,95.3222,28.1,73,100,4.56,ID,1722820723
179,gaspe,48.8334,-64.4819,21.12,88,75,3.09,CA,1722820699
180,okha,53.5739,142.9478,15.33,61,100,7.8,RU,1722820725
181,rovaniemi,66.5,25.7167,13.67,71,0,3.09,FI,1722820726
182,daru,-9.0763,143.2092,25.71,83,87,6.2,PG,1722820728
183,laojunmiao,39.8333,97.7333,25.65,17,95,0.86,CN,1722820729
184,manokwari,-0.8667,134.0833,24.02,91,100,1.22,ID,1722820730
185,barguzin,53.6167,109.6167,20.37,64,2,3.05,RU,1722820731
186,keflavik,64.0049,-22.5624,11.95,87,100,7.72,IS,1722820732
187,sabang,5.8933,95.3214,28.5,75,99,7.72,ID,1722820733
188,pimenta bueno,-11.6725,-61.1936,26.05,38,0,1.71,BR,1722820734
189,vilyuysk,63.7553,121.6247,20.63,37,62,5.16,RU,1722820735
190,hamilton,39.1834,-84.5333,28.82,71,20,2.06,US,1722820245
191,dolgoderevenskoye,55.3444,61.3444,16.19,95,0,4.0,RU,1722820738
192,bahau,2.8079,102.4049,24.44,93,100,1.38,MY,1722820739
193,klyuchi,52.2667,79.1667,20.31,65,31,3.12,RU,1722820735
194,el jadid,33.2549,-8.506,21.39,89,0,2.47,MA,1722820741
195,qaqortoq,60.7167,-46.0333,6.61,80,0,2.74,GL,1722820742
196,carnarvon,-24.8667,113.6333,17.17,46,0,4.03,AU,1722820721
197,las heras,-46.5419,-68.9359,4.54,69,100,4.2,AR,1722820451
198,tazacorte,28.629,-17.9293,22.54,94,75,5.14,ES,1722820747
199,forster,-32.1667,152.5167,17.94,71,100,3.3,AU,1722820748
200,port lincoln,-34.7333,135.8667,12.73,70,8,1.86,AU,1722820667
201,sangmelima,2.9333,11.9833,19.07,98,100,1.38,CM,1722820750
202,yuzhno-kurilsk,44.0306,145.8556,16.83,99,100,2.3,RU,1722820672
203,rafaela,-31.2503,-61.4867,11.66,58,4,1.34,AR,1722820518
204,galveston,29.3669,-94.9669,31.77,76,0,2.06,US,1722820753
205,krasnaya gorbatka,55.8703,41.7641,13.66,95,11,1.94,RU,1722820754
206,abeche,13.8292,20.8324,21.47,95,100,3.68,TD,1722820756
207,al jawf,29.5,38.75,25.5,27,0,2.87,SA,1722820757
208,tshabong,-26.05,22.45,6.55,80,100,5.06,BW,1722820497
209,tromso,69.6496,18.957,14.01,77,0,0.0,NO,1722820482
210,atasu,48.6814,71.6433,20.58,45,0,2.27,KZ,1722820760
211,san luis de la loma,17.2706,-100.8939,26.46,88,100,3.14,MX,1722820761
212,san patricio,28.017,-97.5169,31.05,58,5,5.07,US,1722820762
213,praia da vitoria,38.7333,-27.0667,25.14,88,20,3.28,PT,1722820764
214,el nido,11.1858,119.3956,28.97,82,100,5.49,PH,1722820766
215,jamestown,42.097,-79.2353,22.8,64,0,3.09,US,1722820506
216,al kharj,24.155,47.3346,32.32,18,100,2.03,SA,1722820768
217,east london,-33.0153,27.9116,13.95,51,7,9.44,ZA,1722820769
218,tyukalinsk,55.8732,72.1967,14.44,93,27,2.34,RU,1722820770
219,weno,7.4515,151.8468,31.97,79,75,4.12,FM,1722820557
220,college,64.8569,-147.8028,23.99,50,75,3.09,US,1722820772
221,metu,8.3,35.5833,14.58,99,100,0.79,ET,1722820773
222,toliara,-23.35,43.6667,18.63,61,0,2.31,MG,1722820775
223,igarka,67.4667,86.5833,9.55,64,48,6.2,RU,1722820776
224,kokemaki,61.2565,22.3564,14.88,96,44,1.22,FI,1722820777
225,woodfield,34.0593,-80.9309,26.54,80,0,1.54,US,1722820778
226,khovd,48.0056,91.6419,22.14,35,0,0.41,MN,1722820779
227,san julian,21.0167,-102.1667,21.5,46,65,0.87,MX,1722820781
228,kalol,22.6,73.45,25.69,94,100,2.82,IN,1722820782
229,asau,46.4333,26.4,16.51,75,94,1.6,RO,1722820783
230,bam,29.106,58.357,32.87,12,61,3.39,IR,1722820785
231,teploye,53.6202,37.5903,13.07,91,8,2.66,RU,1722820786
232,brookings,44.3114,-96.7984,21.77,91,100,5.14,US,1722820637
233,pointe-noire,-4.7761,11.8635,21.2,84,99,2.07,CG,1722820750
234,mamuju,-2.6748,118.8885,28.46,71,25,1.32,ID,1722820789
235,alofi,-19.0595,-169.9187,26.94,78,75,4.63,NU,1722820790
236,tago,9.0211,126.2317,26.2,87,100,1.51,PH,1722820791
237,al majaridah,19.1236,41.9111,30.73,56,90,1.25,SA,1722820792
238,rosario do sul,-30.2583,-54.9142,14.07,96,100,5.43,BR,1722820680
239,rongelap,11.1635,166.8941,28.73,78,73,6.46,MH,1722820761
240,remire-montjoly,4.9167,-52.2667,27.02,83,0,1.54,GF,1722820796
241,polyarnyy,69.1989,33.4478,7.6,86,4,0.37,RU,1722820797
242,port elizabeth,-33.918,25.5701,11.16,53,0,8.75,ZA,1722820798
243,metlili chaamba,32.2667,3.6333,29.52,17,0,0.0,DZ,1722820799
244,port moresby,-9.4431,147.1797,27.38,69,59,4.19,PG,1722820661
245,jagdalpur,19.0667,82.0333,23.02,93,57,1.94,IN,1722820801
246,babor - ville,36.4899,5.5393,17.01,54,0,1.57,DZ,1722820802
247,beau vallon,-20.4189,57.6953,19.01,88,20,3.09,MU,1722820804
248,richard-toll,16.4625,-15.7008,27.96,73,100,4.89,SN,1722820805
249,zagorz,49.5146,22.2671,17.39,65,100,0.98,PL,1722820806
250,nabire,-3.3667,135.4833,25.96,82,100,1.19,ID,1722820529
251,longyearbyen,78.2186,15.6401,8.91,87,75,4.63,SJ,1722820673
252,imbituba,-28.24,-48.6703,20.48,96,100,1.94,BR,1722820809
253,hasaki,35.7333,140.8333,32.38,70,0,2.3,JP,1722820810
254,papao,-17.75,-149.55,27.82,73,6,5.83,PF,1722820812
255,punta del este,-34.9667,-54.95,11.6,85,0,3.13,UY,1722820629
256,pisco,-13.7,-76.2167,16.12,88,0,3.09,PE,1722820590
257,nova olimpia,-14.7972,-57.2881,26.01,33,0,2.03,BR,1722820815
258,askiz,53.1319,90.5264,18.98,73,1,2.5,RU,1722820816
259,afaahiti,-17.75,-149.2833,26.93,74,6,5.05,PF,1722820658
260,portland,45.5234,-122.6762,33.89,38,20,3.6,US,1722820442
261,malvan,16.0667,73.4667,26.34,88,100,5.81,IN,1722820773
262,hakui,36.8833,136.7833,32.05,75,18,2.42,JP,1722820820
263,warrnambool,-38.3833,142.4833,10.72,55,100,2.82,AU,1722820821
264,iskateley,67.6803,53.1512,6.19,74,89,6.33,RU,1722820402
265,richards bay,-28.783,32.0377,19.96,68,100,7.49,ZA,1722820655
266,talcahuano,-36.7167,-73.1167,9.82,93,100,11.32,CL,1722820825
267,cosolapa,18.5833,-96.65,24.04,94,16,0.62,MX,1722820826
268,ust-nera,64.5667,143.2,16.11,52,43,1.8,RU,1722820663
269,flin flon,54.7682,-101.865,20.64,35,100,2.25,CA,1722820828
270,la gi,10.6667,107.7833,27.01,82,35,3.53,VN,1722820829
271,vicosa,-20.7539,-42.8819,19.76,63,100,1.92,BR,1722820830
272,itoman,26.1247,127.6694,32.43,73,20,7.72,JP,1722820831
273,nangen,35.41,127.3858,30.33,79,2,1.09,KR,1722820833
274,tafuna,-14.3358,-170.72,29.97,66,40,3.6,AS,1722820834
275,sao mateus do sul,-25.8742,-50.3828,16.31,78,100,1.1,BR,1722820835
276,khandyga,62.6667,135.6,20.89,40,89,3.05,RU,1722820836
277,ghazni,33.5536,68.4269,21.22,62,95,0.69,AF,1722820837
278,guantanamo,20.1444,-75.2092,28.76,83,57,0.61,CU,1722820838
279,saint-philippe,-21.3585,55.7679,18.77,76,31,2.52,RE,1722820803
280,tabou,4.423,-7.3528,24.32,84,100,2.58,CI,1722820733
281,mogok,22.9167,96.5,17.96,100,100,0.22,MM,1722820842
282,aioun,16.6614,-9.6149,29.71,62,99,5.42,MR,1722820843
283,nuku'alofa,-21.1333,-175.2,23.19,73,75,3.09,TO,1722820805
284,belen,36.4891,36.2233,24.08,74,0,7.72,TR,1722820846
285,cockburn town,21.4612,-71.1419,28.3,84,6,9.12,TC,1722820642
286,acapulco de juarez,16.8634,-99.8901,28.9,74,100,2.06,MX,1722820848
287,xinmin,41.9908,122.8253,24.25,98,100,4.96,CN,1722820850
288,mata-utu,-13.2816,-176.1745,27.0,73,100,3.1,WF,1722820805
289,puerto escondido,15.85,-97.0667,28.1,78,99,2.0,MX,1722820643
290,luena,-11.7833,19.9167,14.93,32,6,1.62,AO,1722820854
291,lihue,21.9789,-159.3672,27.77,70,100,6.69,US,1722820748
292,gotha,50.9482,10.7019,16.03,82,0,2.57,DE,1722820856
293,romny,50.751,33.4747,18.37,59,100,2.65,UA,1722820857
294,cidade velha,14.9167,-23.6167,27.26,78,20,0.51,CV,1722820573
295,mount pearl,47.5166,-52.7813,20.81,96,100,1.79,CA,1722820433
296,sparti,37.0733,22.4297,27.75,43,0,1.55,GR,1722820861
297,mitu,1.1983,-70.1733,22.92,97,100,0.75,CO,1722820572
298,rabo de peixe,37.8,-25.5833,22.73,88,20,1.54,PT,1722820855
299,dumas,35.8656,-101.9732,30.9,35,0,5.14,US,1722820865
300,rio grande,-32.035,-52.0986,13.86,96,100,8.29,BR,1722820867
301,gebeit,21.0667,36.3167,26.2,63,100,2.49,SD,1722820868
302,minas de marcona,-15.2119,-75.1103,10.83,86,48,4.89,PE,1722820870
303,crane,31.3974,-102.3501,32.51,31,84,7.97,US,1722820425
304,demyansk,57.643,32.466,12.27,97,3,1.05,RU,1722820872
305,puerto baquerizo moreno,-0.9,-89.6,19.64,85,26,5.63,EC,1722820207
306,nuuk,64.1835,-51.7216,6.34,87,20,0.51,GL,1722820574
307,rexburg,43.826,-111.7897,31.73,29,20,6.69,US,1722820875
308,vorkuta,67.5,64.0,9.01,65,64,4.86,RU,1722820877
309,singkil,-7.9855,111.4161,25.47,72,21,2.62,ID,1722820878
310,bhamo,24.2667,97.2333,24.61,96,100,0.35,MM,1722820879
311,tazovsky,67.4667,78.7,7.47,68,97,5.87,RU,1722820880
312,hirado,33.3597,129.5531,29.7,82,5,5.54,JP,1722820881
313,vertientes,21.2594,-78.1464,26.34,87,100,2.0,CU,1722820882
314,turan,16.0678,108.2208,28.99,70,0,1.03,VN,1722820883
315,gaiman,-43.2897,-65.4929,10.58,43,32,2.78,AR,1722820885
316,al kharijah,25.4514,30.5464,30.74,16,26,3.48,EG,1722820643
317,yanykurgan,43.915,67.2481,25.59,25,0,3.58,KZ,1722820887
318,navarre,30.4016,-86.8636,31.0,76,74,0.89,US,1722820888
319,okeechobee,27.2439,-80.8298,26.01,89,75,6.17,US,1722820889
320,greymouth,-42.4667,171.2,7.03,93,100,2.02,NZ,1722820890
321,lazuri,47.85,22.8667,15.38,94,100,0.0,RO,1722820891
322,aldama,22.9167,-98.0667,29.16,82,21,2.08,MX,1722820892
323,amasra,41.7463,32.3863,21.64,81,4,3.81,TR,1722820894
324,saraykent,39.6936,35.5111,15.82,70,0,2.51,TR,1722820895
325,empangeni,-28.762,31.8933,19.01,70,100,5.83,ZA,1722820896
326,nueva gerona,21.8833,-82.8,28.28,75,100,2.67,CU,1722820897
327,zuwarah,32.9312,12.082,25.86,87,22,4.45,LY,1722820898
328,zahedan,29.4963,60.8629,27.95,39,0,2.06,IR,1722820804
329,mil'kovo,55.6078,37.7956,15.91,75,0,2.61,RU,1722820900
330,as sulayyil,20.4607,45.5779,35.14,15,100,3.02,SA,1722820901
331,kapa'a,22.0752,-159.319,28.18,67,100,6.69,US,1722820903
332,jieshi,22.8134,115.8257,29.22,81,100,0.06,CN,1722820904
333,alibag,18.6411,72.8792,27.04,89,100,6.73,IN,1722820905
334,karratha,-20.7377,116.8463,17.88,57,0,8.25,AU,1722820665
335,luwingu,-10.2621,29.9271,12.08,39,5,1.71,ZM,1722820907
336,ola,59.5833,151.2833,15.77,74,0,2.23,RU,1722820644
337,hastings,50.8552,0.5729,16.27,86,61,4.46,GB,1722820909
338,bereznik,62.8551,42.7072,14.62,94,100,2.22,RU,1722820910
339,souillac,-20.5167,57.5167,16.21,88,20,3.09,MU,1722820911
340,kas,36.2018,29.6377,28.01,43,0,1.78,TR,1722820913
341,labuan bajo,-8.4964,119.8877,26.53,60,11,0.97,ID,1722820914
342,masina,-4.3836,15.3914,22.16,68,74,3.09,CD,1722820915
343,lamu,-2.2717,40.902,23.45,73,12,6.06,KE,1722820916
344,tubarjal,30.4999,38.216,25.82,42,0,4.81,SA,1722820917
345,'ain benian,36.8028,2.9219,21.03,76,0,3.59,DZ,1722820918
346,punaauia,-17.6333,-149.6,27.8,57,20,1.54,PF,1722820919
347,eha amufu,6.6592,7.7596,22.3,97,100,2.01,NG,1722820921
348,tolanaro,-25.0319,46.9987,17.04,94,20,1.03,MG,1722820726
349,shingu,33.7333,135.9833,30.42,70,14,2.02,JP,1722820742
350,howard springs,-12.497,131.047,28.32,75,31,3.36,AU,1722820648
351,touros,-5.1989,-35.4608,23.33,82,16,5.36,BR,1722820669
352,vadso,70.0744,29.7487,10.49,100,100,6.17,NO,1722820926
353,dakhla,23.6848,-15.958,20.29,94,19,3.61,EH,1722820426
354,cabedelo,-6.9811,-34.8339,23.37,84,38,6.22,BR,1722820928
355,manggar,-2.8833,108.2667,28.37,69,55,5.77,ID,1722820930
356,international falls,48.6011,-93.411,20.02,64,92,1.54,US,1722820931
357,laascaanood,8.4774,47.3597,21.29,71,100,12.07,SO,1722820932
358,ladario,-19.0047,-57.6017,26.87,36,0,0.19,BR,1722820933
359,port douglas,-16.4833,145.4667,22.44,74,75,5.13,AU,1722820598
360,sinabang,2.4803,96.3801,26.93,83,57,1.52,ID,1722820908
361,illapel,-31.6308,-71.1653,9.97,82,100,1.08,CL,1722820571
362,prado,-17.3411,-39.2208,22.15,88,32,4.03,BR,1722820709
363,hailar,49.2,119.7,19.44,79,100,5.32,CN,1722820938
364,shillong,25.5689,91.8831,20.07,90,100,1.16,IN,1722820708
365,djambala,-2.5447,14.7533,21.28,60,6,1.81,CG,1722820941
366,vernon,50.2581,-119.2691,35.97,25,0,1.34,CA,1722820942
367,cururupu,-1.8283,-44.8683,23.37,88,30,1.19,BR,1722820944
368,sernur,56.9333,49.1536,14.86,88,82,2.89,RU,1722820945
369,antsiranana,-12.2787,49.2917,20.94,76,7,6.34,MG,1722820946
370,n'zeto,-7.2312,12.8666,20.74,82,97,2.22,AO,1722820947
371,bathsheba,13.2167,-59.5167,28.34,83,40,10.29,BB,1722820950
372,garanhuns,-8.8903,-36.4928,16.59,98,100,4.29,BR,1722820659
373,tralee,52.2704,-9.7026,17.33,98,100,2.75,IE,1722820952
374,tafo,6.7345,-1.6127,21.54,93,85,2.12,GH,1722820953
375,mossel bay,-34.1831,22.146,5.96,70,2,5.85,ZA,1722820821
376,paramonga,-10.6667,-77.8333,16.59,86,20,4.68,PE,1722820955
377,lata,40.1629,-8.3327,17.26,97,35,0.93,PT,1722820956
378,veraval,20.9,70.3667,27.47,88,100,7.29,IN,1722820957
379,sabha,27.0377,14.4283,30.84,14,0,6.56,LY,1722820959
380,kavieng,-2.5744,150.7967,28.64,73,100,4.55,PG,1722820537
381,san jose de jachal,-30.2406,-68.7469,11.25,17,0,1.71,AR,1722820961
382,katsuren-haebaru,26.3369,127.8719,32.83,68,40,6.17,JP,1722820508
383,midvagur,62.0511,-7.1939,12.46,100,100,11.32,FO,1722820963
384,maqat,47.65,53.3167,26.43,43,0,2.74,KZ,1722820816
385,ancud,-41.8697,-73.8203,7.98,91,100,8.32,CL,1722820965
386,yuanping,38.7153,112.7575,22.2,65,0,0.25,CN,1722820966
387,sterling,39.0062,-77.4286,26.97,80,20,2.57,US,1722820884
388,benguela,-12.5763,13.4055,18.69,88,41,1.29,AO,1722820969
389,turpan,42.9333,89.1667,38.63,18,71,1.78,CN,1722820970
390,canton,23.1167,113.25,32.97,55,100,2.34,CN,1722820714
391,stargard,53.3367,15.0499,16.94,91,100,4.58,PL,1722820972
392,juan griego,11.0817,-63.9655,27.07,94,97,4.12,VE,1722820973
393,arraial do cabo,-22.9661,-42.0278,22.48,90,0,11.11,BR,1722820649
394,ubinskoye,55.3068,79.6802,16.37,91,100,2.8,RU,1722820975
395,uyar,55.81,94.3153,16.06,87,100,1.43,RU,1722820976
396,abhar,36.1468,49.218,19.88,51,0,3.12,IR,1722820978
397,duong dong,10.2167,103.9667,27.0,94,40,4.63,VN,1722820979
398,sola,-13.8833,167.55,23.88,69,70,12.6,VU,1722820980
399,bataipora,-22.2953,-53.2711,24.67,34,0,4.0,BR,1722820981
400,birpara,26.7042,89.1455,24.78,95,100,2.09,IN,1722820983
401,myeik,12.4333,98.6,26.51,83,100,0.79,MM,1722820984
402,kayangel,8.0823,134.7173,28.93,74,17,5.7,PW,1722820985
403,holualoa,19.6228,-155.9522,26.91,81,100,4.12,US,1722820751
404,geraldton,-28.7667,114.6,11.23,87,0,4.12,AU,1722820988
405,kewanee,41.2456,-89.9248,28.21,87,98,3.08,US,1722820830
406,magna,40.7091,-112.1016,35.0,26,2,2.68,US,1722820990
407,namibe,-15.1961,12.1522,15.56,89,0,1.55,AO,1722820991
408,corner brook,48.9667,-57.9484,23.09,98,100,1.97,CA,1722820992
409,labytnangi,66.6572,66.4183,9.35,61,100,9.14,RU,1722820664
410,chui,-33.6971,-53.4616,11.88,84,100,2.31,UY,1722820994
411,catalao,-18.1658,-47.9464,20.77,51,100,2.62,BR,1722820995
412,undurkhaan,47.3194,110.6556,21.26,56,6,2.0,MN,1722820996
413,hotan,37.0997,79.9269,27.61,34,100,2.57,CN,1722820998
414,narragansett,41.4501,-71.4495,22.79,76,100,4.46,US,1722820999
415,damnagar,21.7,71.5167,26.02,90,100,4.21,IN,1722821000
416,constantia,44.1833,28.65,19.38,72,5,4.22,RO,1722820778
417,mangrol,21.1167,70.1167,27.63,88,100,7.68,IN,1722821002
418,xam nua,20.4197,104.0439,21.5,96,100,0.21,LA,1722821003
419,naxos,37.1056,25.3764,28.5,63,6,1.34,GR,1722821004
420,ilhabela,-23.7781,-45.3581,21.42,81,85,2.18,BR,1722821005
421,senillosa,-39.0,-68.4167,9.88,36,92,3.02,AR,1722821006
422,kurgan,55.45,65.3333,14.12,95,6,2.62,RU,1722821008
423,akureyri,65.6835,-18.0878,11.96,71,100,3.6,IS,1722820640
424,sinor,21.9167,73.3333,26.01,94,100,4.36,IN,1722821010
425,aban,56.67,96.06,18.08,65,4,2.58,RU,1722821011
426,taulaga,-11.0553,-171.0883,27.09,81,100,5.6,AS,1722821012
427,sylva,58.0348,56.7635,14.65,98,100,1.64,RU,1722821013
428,bikenibeu village,1.3673,173.1241,30.98,66,20,3.6,KI,1722820819
429,bahia de caraquez,-0.6,-80.4167,24.1,86,59,4.57,EC,1722821017
430,kruisfontein,-34.0033,24.7314,8.82,67,5,6.58,ZA,1722820959
431,barabinsk,55.3571,78.357,15.95,90,100,2.84,RU,1722820592
432,borogontsy,62.6683,131.1683,20.01,39,100,4.85,RU,1722821020
433,itamaraca,-7.7478,-34.8256,24.03,85,68,5.88,BR,1722821021
434,mariupol,47.0667,37.5,21.24,80,12,1.18,UA,1722821022
435,kudahuvadhoo,2.6708,72.8944,28.33,72,100,6.47,MV,1722820955
436,arteche,12.2645,125.4048,28.87,73,87,2.56,PH,1722821024
437,miri,4.4148,114.0089,27.08,83,40,0.51,MY,1722821025
438,la passe,45.5549,-0.8967,19.13,91,0,2.84,FR,1722820601
439,gosaba,22.165,88.7998,28.02,87,100,2.53,IN,1722821028
440,bereeda,11.8704,51.0579,29.68,61,100,3.1,SO,1722821029
441,nadi,-17.8,177.4167,27.0,54,40,5.66,FJ,1722820806
442,dampit,-8.2116,112.7493,24.65,62,77,2.62,ID,1722821031
443,newport,51.5877,-2.9984,17.01,89,4,3.61,GB,1722820816
444,goz beida,13.95,20.55,21.8,94,100,3.94,TD,1722821034
445,codrington,-38.2667,141.9667,11.3,56,7,2.91,AU,1722820642
446,alotau,-10.3069,150.4462,24.37,90,100,3.03,PG,1722821017
447,luganville,-15.5333,167.1667,24.05,58,20,6.27,VU,1722821038
448,la palma,33.8464,-118.0467,37.15,43,0,6.17,US,1722821039
449,pariyapuram,10.9561,76.1916,23.16,98,100,0.35,IN,1722821040
450,santa terezinha,-29.9002,-50.0904,16.58,99,100,1.76,BR,1722821041
451,reggane,26.7158,0.1714,37.89,10,54,3.7,DZ,1722821042
452,ketchikan,55.3422,-131.6461,24.26,46,0,4.63,US,1722821043
453,saint-pierre,-21.3393,55.4781,18.82,55,20,4.12,RE,1722820761
454,noumea,-22.2763,166.4572,22.78,99,8,6.54,NC,1722821046
455,roma,43.2128,-75.4557,23.71,76,0,2.57,US,1722820847
456,old town,50.087,14.4202,17.7,95,0,3.6,CZ,1722821048
457,avallon,47.4833,3.9,15.73,90,100,1.03,FR,1722821049
458,xilin hot,43.9667,116.0333,23.44,45,0,3.4,CN,1722820633
459,twon-brass,4.3151,6.2418,24.92,80,93,4.61,NG,1722821052
460,kiri buru,22.0833,85.35,24.93,90,97,1.17,IN,1722821053
461,fort st. john,56.2499,-120.8529,13.94,82,75,4.12,CA,1722820888
462,rechka-vydrino,51.485,104.8461,16.4,88,100,0.86,RU,1722821056
463,borgarnes,64.5383,-21.9206,13.78,82,100,9.14,IS,1722820814
464,suwayr,30.1171,40.3893,25.52,23,0,3.74,SA,1722821059
465,broome,42.2506,-75.833,23.33,67,0,1.51,US,1722821060
466,piti village,13.4626,144.6933,31.03,77,0,5.14,GU,1722821061
467,timimoun,29.2639,0.231,34.21,10,0,4.63,DZ,1722821064
468,maputo,-25.9653,32.5892,20.82,73,20,7.2,MZ,1722821065
469,gadzhiyevo,69.2551,33.3362,7.19,88,3,0.83,RU,1722821066
470,sanctuary point,-35.1114,150.629,15.18,51,100,2.44,AU,1722821067
471,vikulovo,56.8167,70.6107,15.0,94,76,1.74,RU,1722821068
472,kelso,46.1468,-122.9084,31.44,56,0,3.6,US,1722820816
473,zhezqazghan,47.7833,67.7667,17.32,48,0,3.0,KZ,1722821070
474,camarinas,43.1311,-9.1817,19.54,93,4,2.6,ES,1722821071
475,lamar,33.6668,-95.5836,30.99,60,21,3.32,US,1722821072
476,amos,48.5669,-78.1162,13.68,65,8,2.22,CA,1722821074
477,lashio,22.9333,97.75,20.7,100,100,0.41,MM,1722821075
478,astrakhan,46.3497,48.0408,20.93,73,0,0.0,RU,1722820922
479,cuorgne,45.3895,7.6499,24.27,78,100,2.48,IT,1722821077
480,mejit,10.2753,170.8646,28.66,79,21,6.68,MH,1722820591
481,sittwe,20.15,92.9,26.82,85,99,3.03,MM,1722821079
482,boali,4.8005,18.1275,21.42,95,97,0.8,CF,1722821080
483,honggang,46.4667,124.8667,25.6,86,100,5.21,CN,1722821081
484,khilok,51.3674,110.4676,20.06,60,0,3.92,RU,1722821083
485,xining,36.6167,101.7667,17.13,63,3,1.0,CN,1722821084
486,taksimo,56.3444,114.8794,20.33,63,56,1.21,RU,1722821085
487,tirumullaivasal,11.2333,79.8333,25.6,87,100,3.63,IN,1722821086
488,tyuratam,45.6507,63.3156,25.71,33,100,0.21,KZ,1722821087
489,pacific grove,36.6177,-121.9166,24.56,89,100,5.14,US,1722820593
490,qarqaraly,49.4058,75.4742,18.12,56,31,1.93,KZ,1722821089
491,rikaze,29.25,88.8833,14.02,59,100,0.2,CN,1722820552
492,isangel,-19.55,169.2667,25.06,50,75,2.57,VU,1722820772
493,poshekhon'ye,58.4993,39.1353,12.96,96,17,1.82,RU,1722821093
494,mahina,-17.5065,-149.489,27.87,57,20,1.54,PF,1722821094
495,cherdyn',60.403,56.4787,13.35,99,94,1.24,RU,1722821095
496,olyokminsk,60.3736,120.4264,14.81,97,100,2.68,RU,1722821096
497,argo,37.6333,22.7333,26.55,54,0,1.13,GR,1722820542
498,samokov,42.3333,23.55,13.03,59,100,2.09,BG,1722821098
499,navapolatsk,55.5363,28.6424,15.77,79,85,1.86,BY,1722821099
500,palangkaraya,-2.2,113.8333,26.56,69,89,2.21,ID,1722821100
501,san-pedro,4.7485,-6.6363,24.06,84,100,2.37,CI,1722821102
502,kikwit,-5.041,18.8162,25.06,37,100,1.09,CD,1722821103
503,pervomayskoye,43.919,46.7102,22.53,75,0,3.28,RU,1722821104
504,usinsk,65.9939,57.5281,12.44,80,100,9.7,RU,1722821105
505,nicoya,10.1483,-85.452,24.13,96,100,1.03,CR,1722821107
506,villa gesell,-37.2639,-56.973,9.47,69,13,4.38,AR,1722820942
507,azemmour,33.2895,-8.3425,20.82,91,0,1.85,MA,1722821110
508,puerto deseado,-47.7503,-65.8938,5.0,95,95,4.79,AR,1722821111
509,shixing,24.9482,114.0657,32.02,70,9,1.14,CN,1722821112
510,boca suno,-0.7167,-77.1333,21.98,98,78,1.36,EC,1722821113
511,bitburg,49.9667,6.5333,16.37,84,40,1.54,DE,1722821114
512,susuman,62.7833,148.1667,17.33,38,4,2.55,RU,1722821052
513,cambria,35.5641,-121.0808,35.41,70,30,3.76,US,1722821116
514,kunashak,55.7032,61.5498,16.29,99,100,2.88,RU,1722821117
515,malmberget,67.1753,20.6549,10.31,93,12,0.0,SE,1722821119
516,dubbo,-32.25,148.6167,12.07,71,100,2.57,AU,1722821120
517,cape coast,5.1053,-1.2466,23.81,84,100,2.95,GH,1722820596
518,lionel town,17.8101,-77.2406,30.94,85,3,3.85,JM,1722821122
519,peniche,39.3558,-9.3811,20.06,91,2,6.9,PT,1722821123
520,siracusa,37.0881,15.2792,25.65,80,0,1.98,IT,1722821124
521,ust'-dzheguta,44.0834,41.9763,17.8,72,0,2.47,RU,1722821125
522,isla vista,34.4133,-119.861,33.21,42,98,3.0,US,1722821126
523,acacoyagua,15.35,-92.65,25.31,90,100,1.75,MX,1722821127
524,datong,40.0936,113.2914,22.36,55,0,0.25,CN,1722821129
525,masterton,-40.9597,175.6575,12.16,69,100,1.75,NZ,1722821130
526,beitbridge,-22.2167,30.0,18.21,20,0,1.76,ZW,1722821131
527,vila franca do campo,37.7167,-25.4333,23.23,90,2,1.69,PT,1722820826
528,novaya ladoga,60.1025,32.3019,14.39,93,90,1.5,RU,1722821133
529,urumqi,43.801,87.6005,29.53,29,0,3.0,CN,1722821134
530,vila velha,-20.3297,-40.2925,21.08,97,75,1.54,BR,1722820721
531,mogocha,53.7333,119.7667,16.66,97,100,1.44,RU,1722821136
532,jonuta,18.0833,-92.1333,26.53,83,100,2.97,MX,1722821137
533,lom sak,16.7798,101.2422,25.94,100,40,1.03,TH,1722821139
534,whakatane,-37.9585,176.9854,16.6,70,78,0.45,NZ,1722821140
535,escalante,10.8167,123.5,28.46,70,100,0.72,PH,1722821141
536,petukhovo,55.0692,67.9019,13.9,95,7,3.37,RU,1722821142
537,forest,37.3638,-79.2897,26.14,86,0,0.0,US,1722821023
538,monopoli,40.9559,17.2896,25.04,72,5,5.48,IT,1722821144
539,zelenoborskiy,66.845,32.3622,10.1,82,48,2.37,RU,1722821145
540,nyandoma,61.669,40.1991,14.08,92,100,1.94,RU,1722821146
541,sidney,-33.8679,151.2073,14.1,75,100,1.54,AU,1722820990
542,sibiti,-3.6819,13.3499,18.87,79,44,1.81,CG,1722821149
543,north battleford,52.7834,-108.2847,22.05,56,20,5.66,CA,1722821150
544,praya,14.9215,-23.5087,27.3,78,20,0.51,CV,1722821151
545,tsiombe,-25.3,45.4833,15.55,93,1,1.48,MG,1722820827
546,luanda,-8.8368,13.2343,20.29,82,100,2.24,AO,1722821153
547,tocopilla,-22.092,-70.1979,16.62,75,35,2.54,CL,1722821154
548,malanje,-9.5402,16.341,17.38,73,72,1.73,AO,1722821155
549,tselinnoye,53.0833,85.6667,18.14,79,100,1.92,RU,1722821156
550,dresden,51.0509,13.7383,16.82,89,20,2.06,DE,1722820645
551,bani suwayf,29.0744,31.0979,27.43,47,7,2.73,EG,1722821159
552,tyukhtet,56.5389,89.3011,17.63,94,100,2.43,RU,1722821160
553,nelson bay,-32.7167,152.15,16.17,76,100,0.89,AU,1722821161
554,san andres ixtlan,19.8167,-103.4667,20.05,89,95,1.53,MX,1722821162
555,kill devil hills,36.0307,-75.676,26.66,88,0,6.17,US,1722821163
556,chiredzi,-21.05,31.6667,16.42,18,0,1.85,ZW,1722821164
557,boca chica,18.4537,-69.6111,27.48,94,75,3.09,DO,1722820948
558,taoudenni,22.6783,-3.9836,37.08,18,0,8.19,ML,1722820873
559,sur,22.5667,59.5289,28.92,73,100,3.45,OM,1722821169
560,champerico,14.3,-91.9167,27.85,71,100,0.97,GT,1722821170
561,guerrero negro,27.9769,-114.0611,23.23,72,17,6.44,MX,1722820651
562,la sarre,48.8002,-79.1996,15.32,56,37,3.2,CA,1722820758
563,rio preto da eva,-2.6994,-59.6997,25.94,49,57,1.05,BR,1722821173
564,sabya,17.1495,42.6254,26.79,73,100,3.13,SA,1722821174
565,island harbour,50.724,-1.2758,16.63,75,23,0.89,GB,1722821175
566,san juan de miraflores,-12.1629,-76.9635,16.76,85,71,5.69,PE,1722821177
567,ratnagiri,16.9833,73.3,25.95,90,100,4.48,IN,1722821178
568,altamont,42.2068,-121.7372,33.55,22,0,4.63,US,1722821179
569,hovd,48.0056,91.6419,22.14,35,0,0.41,MN,1722821180
570,gordonvale,-17.0936,145.7842,23.88,86,82,2.45,AU,1722821181
571,margate,51.3813,1.3862,15.17,84,46,4.9,GB,1722820956
572,saint-francois,46.4154,3.9054,14.8,95,0,1.03,FR,1722821117
573,dyurtyuli,55.4911,54.8688,16.8,88,100,4.46,RU,1722821184
574,bogorodsk,56.1033,43.5158,13.64,93,3,2.15,RU,1722821180
575,lesogorsk,56.0458,99.5136,18.38,68,0,0.45,RU,1722821188
576,nikolayevsk-on-amure,53.1406,140.73,18.7,52,100,2.08,RU,1722821189
577,dadukou,26.5479,101.7054,23.36,87,87,0.68,CN,1722821190
578,bar-sur-aube,48.25,4.5833,14.35,89,100,1.3,FR,1722821191
579,lensk,60.7253,114.9278,19.9,71,99,3.6,RU,1722821192
580,segbwema,7.9967,-10.9496,22.31,99,100,0.95,SL,1722821193
581,christchurch,-43.5333,172.6333,14.15,62,7,1.54,NZ,1722821161
582,el aioun,34.5832,-2.5061,25.7,55,43,0.61,MA,1722821195
583,presque isle,46.6811,-68.0159,22.32,78,100,2.48,US,1722821197
584,ulaangom,49.9811,92.0667,19.42,57,0,1.48,MN,1722820942
585,montepuez,-13.1256,38.9997,15.44,96,21,1.26,MZ,1722821200
586,muroto-misakicho,33.2833,134.15,29.05,79,3,1.33,JP,1722821201
587,cervantes,-39.05,-67.3833,9.88,37,100,2.0,AR,1722821154
588,lubao,14.9167,120.55,29.84,74,100,2.52,PH,1722821203
589,semera,11.501,41.201,29.08,55,100,3.24,ET,1722821160
